{"version": 1, "data": {"уфа": {"query": "Уфа", "results": [{"name": "Уфа", "country": "Россия", "admin1": "Башкортостан", "latitude": 54.74306, "longitude": 55.96779, "timezone": "Asia/Yekaterinburg", "timezone_name": "Asia/Yekaterinburg", "timezone_source": "open_meteo"}, {"name": "Уфа", "country": "Россия", "admin1": "Пермский край", "latitude": 57.5214, "longitude": 56.7834, "timezone": "Asia/Yekaterinburg", "timezone_name": "Asia/Yekaterinburg", "timezone_source": "open_meteo"}, {"name": "Уфа-Шигири", "country": "Россия", "admin1": "Свердловская Область", "latitude": 56.45152, "longitude": 58.9198, "timezone": "Asia/Yekaterinburg", "timezone_name": "Asia/Yekaterinburg", "timezone_source": "open_meteo"}], "cached_at": "2026-06-01T07:15:37.650492Z"}, "warsaw": {"query": "Warsaw", "results": [{"name": "Варшава", "country": "Польша", "admin1": "Мазовецкое воеводство", "latitude": 52.22977, "longitude": 21.01178, "timezone": "Europe/Warsaw", "timezone_name": "Europe/Warsaw", "timezone_source": "open_meteo"}, {"name": "Warsaw", "country": "США", "admin1": "Индиана", "latitude": 41.2381, "longitude": -85.85305, "timezone": "America/Indiana/Indianapolis", "timezone_name": "America/Indiana/Indianapolis", "timezone_source": "open_meteo"}, {"name": "Warsaw", "country": "США", "admin1": "Нью-Йорк", "latitude": 42.74006, "longitude": -78.13279, "timezone": "America/New_York", "timezone_name": "America/New_York", "timezone_source": "open_meteo"}, {"name": "Warsaw", "country": "США", "admin1": "Миссури", "latitude": 38.24308, "longitude": -93.38187, "timezone": "America/Chicago", "timezone_name": "America/Chicago", "timezone_source": "open_meteo"}, {"name": "Warsaw", "country": "США", "admin1": "Кентукки", "latitude": 38.7834, "longitude": -84.90162, "timezone": "America/New_York", "timezone_name": "America/New_York", "timezone_source": "open_meteo"}, {"name": "Warsaw", "country": "США", "admin1": "Вирджиния", "latitude": 37.95874, "longitude": -76.75801, "timezone": "America/New_York", "timezone_name": "America/New_York", "timezone_source": "open_meteo"}, {"name": "Warsaw", "country": "США", "admin1": "Северная Каролина", "latitude": 34.99933, "longitude": -78.0911, "timezone": "America/New_York", "timezone_name": "America/New_York", "timezone_source": "open_meteo"}, {"name": "Warsaw", "country": "США", "admin1": "Иллинойс", "latitude": 40.35921, "longitude": -91.4346, "timezone": "America/Chicago", "timezone_name": "America/Chicago", "timezone_source": "open_meteo"}], "cached_at": "2026-06-07T18:04:57.631116Z"}}}